[
  {
    "id": "champions-field",
    "name": "광주-기아 챔피언스 필드",
    "teams": ["KIA 타이거즈"],
    "team_short": ["KIA"],
    "team_short_color": ["kia"],
    "coordinates": {
      "lat": 35.1694249627668,
      "lng": 126.888805470329
    },
    "tips": [
      {
        "tip": "'야구앤오더'로 주문 시 좌석까지 배달가능(2,500원 추가)",
        "delivery_zone": [
          "1루: GATE 2 앞(인크커피 쪽)",
          "3루: 홈 출입구 맞은편(무등경기장 주차장 GATE 2 앞)"
        ]
      }
    ]
  },
  {
    "id": "lions-park",
    "name": "대구 삼성 라이온즈파크",
    "teams": ["삼성 라이온즈"],
    "team_short": ["삼성"],
    "team_short_color": ["samsung"],
    "coordinates": {
      "lat": 35.8411289243023,
      "lng": 128.681236372268
    },
    "tips": [
      {
        "delivery_zone": ["대공원역 5번 출구"]
      }
    ]
  },
  {
    "id": "seoul-baseball-stadium",
    "name": "잠실종합운동장",
    "teams": ["LG 트윈스", "두산 베어스"],
    "team_short": ["LG", "두산"],
    "team_short_color": ["lg", "doosan"],
    "coordinates": {
      "lat": 37.5161987797456,
      "lng": 127.075940589715
    },
    "tips": [
      {
        "tip": "'야구앤오더'로 주문 시 좌석까지 배달가능(2,500원 추가)",
        "delivery_zone": ["짐실종합운동장역 5번, 6번 출구"]
      }
    ]
  },
  {
    "id": "wiz-park",
    "name": "수원 KT위즈파크",
    "teams": ["KT 위즈"],
    "team_short": ["KT"],
    "team_short_color": ["kt"],
    "coordinates": {
      "lat": 37.2997632112014,
      "lng": 127.00963497161865
    },
    "tips": [
      {
        "delivery_zone": ["1루, 3루 입장 게이트"]
      }
    ]
  },
  {
    "id": "landers-field",
    "name": "인천 SSG랜더스 필드",
    "teams": ["SSG 랜더스"],
    "team_short": ["SSG"],
    "team_short_color": ["ssg"],
    "coordinates": {
      "lat": 37.4350819826381,
      "lng": 126.690759830613
    },
    "tips": [
      {
        "delivery_zone": [
          "1루: 도드람 게이트 앞",
          "3루: GATE 4 앞",
          "외야: GATE 7 앞"
        ]
      }
    ]
  },

  {
    "id": "sajik-baseball-stadium",
    "name": "부산 사직 종합운동장",
    "teams": ["롯데 자이언츠"],
    "team_short": ["롯데"],
    "team_short_color": ["lotte"],
    "coordinates": {
      "lat": 35.194366802896,
      "lng": 129.059900885997
    },
    "tips": [
      {
        "delivery_zone": ["최동원 동상/자이언츠샵 앞 등"]
      }
    ]
  },
  {
    "id": "baseball-dream-park",
    "name": "베이스볼 드림파크",
    "teams": ["한화 이글스"],
    "team_short": ["한화"],
    "team_short_color": ["hanwha"],
    "coordinates": {
      "lat": 36.3173370007388,
      "lng": 127.428013823451
    }
  },
  {
    "id": "nc-park",
    "name": "창원 NC파크",
    "teams": ["NC 다이노스"],
    "team_short": ["NC"],
    "team_short_color": ["nc"],
    "coordinates": {
      "lat": 35.2219848625101,
      "lng": 128.579580117268
    }
  },
  {
    "id": "gocheok-sky-dome",
    "name": "고척 스카이돔",
    "teams": ["키움 히어로즈"],
    "team_short": ["키움"],
    "team_short_color": ["kiwoom"],
    "coordinates": {
      "lat": 37.4982125677913,
      "lng": 126.867088741096
    },
    "tips": [
      {
        "delivery_zone": ["티켓창구 옆 야구공 동상 앞"]
      }
    ]
  }
]
